{
  "autores": [
    {
      "id": "1",
      "nombre": "Gabriel García Márquez",
      "anioNacimiento": 1927,
      "lugarNacimiento": {
        "latitud": 10.5884,
        "longitud": -75.7088
      }
    },
    {
      "id": "2",
      "nombre": "Miguel de Cervantes",
      "anioNacimiento": 1547,
      "lugarNacimiento": {
        "latitud": 39.4193,
        "longitud": -3.7026
      }
    },
    {
      "id": "3",
      "nombre": "George Orwell",
      "anioNacimiento": 1903,
      "lugarNacimiento": {
        "latitud": 51.5155,
        "longitud": -0.1452
      }
    },
    {
      "id": "4",
      "nombre": "Ray Bradbury",
      "anioNacimiento": 1920,
      "lugarNacimiento": {
        "latitud": 41.8819,
        "longitud": -87.6278
      }
    },
    {
      "id": "5",
      "nombre": "Carlos Ruiz Zafón",
      "anioNacimiento": 1964,
      "lugarNacimiento": {
        "latitud": 41.3784,
        "longitud": 2.1922
      }
    },
    {
      "id": "6",
      "nombre": "M. Ángeles Robledo",
      "anioNacimiento": 1972,
      "lugarNacimiento": {
        "latitud": 52.364,
        "longitud": -11.255
      }
    },
    {
      "id": "7",
      "nombre": "PEPE VIYUELA",
      "anioNacimiento": 1976,
      "lugarNacimiento": {
        "latitud": 42.46261,
        "longitud": -2.44443
      }
    }
  ]
}